City_ID,City,Lat,Lng,Max Temp,Humidity,Cloudiness,Wind Speed,Country,Date
0,kirkwall,58.9848,-2.9587,50.05,81,75,19.57,GB,1684882096
1,tangalle,6.024,80.7911,77.4,88,4,7.27,LK,1684881897
2,mata-utu,-13.2816,-176.1745,81.37,78,86,4.32,WF,1684882069
3,port-aux-francais,-49.35,70.2167,46.17,98,100,29.42,TF,1684882101
4,blackmans bay,-43.0167,147.3167,56.07,71,60,5.57,AU,1684881855
5,mount gambier,-37.8333,140.7667,51.33,85,33,9.37,AU,1684882105
6,longyearbyen,78.2186,15.6401,35.44,80,75,29.93,SJ,1684882106
7,albany,42.6001,-73.9662,70.93,53,26,3.0,US,1684882108
8,molde,62.7375,7.1591,44.46,87,40,9.22,NO,1684882097
9,kingston,17.997,-76.7936,82.22,82,75,6.91,JM,1684881826
10,east london,-33.0153,27.9116,60.94,55,15,5.32,ZA,1684882111
11,chonchi,-42.6128,-73.8092,50.13,91,86,15.17,CL,1684882113
12,yafran,32.0633,12.5286,66.58,50,0,20.4,LY,1684882114
13,gadzhiyevo,69.2551,33.3362,44.08,91,49,10.63,RU,1684882115
14,peniche,39.3558,-9.3811,63.16,86,65,4.92,PT,1684882117
15,saipan,15.1355,145.701,77.65,100,100,19.57,MP,1684882118
16,bilibino,68.0546,166.4372,45.73,52,60,3.96,RU,1684882119
17,pyapon,16.2833,95.6833,80.13,84,86,8.84,MM,1684882120
18,tolanaro,-25.0319,46.9987,62.67,88,40,4.61,MG,1684881892
19,daru,-9.0763,143.2092,79.66,79,73,16.84,PG,1684882123
20,vilyuchinsk,52.9306,158.4028,44.26,90,86,4.81,RU,1684882124
21,ribeira grande,38.5167,-28.7,63.77,82,13,11.01,PT,1684882125
22,vernon,50.2581,-119.2691,59.2,69,100,3.0,CA,1684882126
23,richards bay,-28.783,32.0377,62.62,88,64,6.78,ZA,1684882128
24,anna regina,7.2644,-58.5077,79.5,85,59,7.36,GY,1684882129
25,grytviken,-54.2811,-36.5092,35.42,82,31,10.67,GS,1684882132
26,atafu village,-8.5421,-172.5159,82.85,74,97,7.65,TK,1684882133
27,anzio,41.4853,12.6179,63.39,82,75,3.98,IT,1684882134
28,adamstown,-25.066,-130.1015,76.64,87,75,30.15,PN,1684882135
29,ushuaia,-54.8,-68.3,42.46,93,100,3.44,AR,1684881853
30,waitangi,-43.9535,-176.5597,55.81,96,2,1.99,NZ,1684882138
31,severo-yeniseyskiy,60.3725,93.0408,31.01,83,99,12.93,RU,1684882139
32,happy valley-goose bay,53.3168,-60.3315,61.11,29,75,18.41,CA,1684882140
33,uribia,11.7139,-72.266,84.96,67,24,14.88,CO,1684882142
34,isafjordur,66.0755,-23.124,36.99,97,100,33.06,IS,1684882143
35,pontian kechil,1.4866,103.3896,80.01,91,9,3.62,MY,1684882144
36,la'ie,21.6477,-157.9253,81.28,69,39,7.0,US,1684881863
37,tiksi,71.6872,128.8694,22.35,84,25,3.09,RU,1684882147
38,college,64.8569,-147.8028,64.72,32,20,5.75,US,1684881856
39,puerto natales,-51.7236,-72.4875,31.68,95,85,3.09,CL,1684881854
40,teluknaga,-6.0989,106.6381,78.89,100,20,3.44,ID,1684882150
41,benghazi,32.1167,20.0667,67.14,76,100,12.21,LY,1684882152
42,iqaluit,63.7506,-68.5145,20.7,73,75,20.71,CA,1684882153
43,lebu,-37.6167,-73.65,53.67,75,33,17.87,CL,1684882097
44,edinburgh of the seven seas,-37.0676,-12.3116,56.48,67,71,26.6,SH,1684882156
45,berezovo,63.9381,65.0419,57.29,76,99,7.45,RU,1684882157
46,igarka,67.4667,86.5833,31.41,84,79,16.46,RU,1684882158
47,hermanus,-34.4187,19.2345,52.81,75,71,3.18,ZA,1684882160
48,kapa'a,22.0752,-159.319,79.23,77,100,11.5,US,1684882161
49,la passe,45.5549,-0.8967,61.02,78,15,17.74,FR,1684881879
50,papatowai,-46.5619,169.4708,48.99,71,88,9.26,NZ,1684882163
51,broken hill,-31.95,141.4333,54.99,42,4,8.25,AU,1684882165
52,hithadhoo,-0.6,73.0833,82.24,73,11,5.88,MV,1684882166
53,'ain el bell,34.3438,3.2247,58.37,64,1,16.46,DZ,1684882167
54,stanley,54.868,-1.6985,50.74,80,99,8.39,GB,1684882169
55,atoyac de alvarez,17.2,-100.4333,89.67,57,63,7.58,MX,1684882170
56,bargaal,11.2864,51.0773,82.26,79,86,9.6,SO,1684882171
57,qamdo,31.1667,97.2333,33.3,39,17,1.97,CN,1684882173
58,coahuayana de hidalgo,18.7,-103.6583,88.29,54,60,6.93,MX,1684882174
59,nema,57.5067,50.5011,58.32,68,86,4.5,RU,1684882175
60,pacific grove,36.6177,-121.9166,58.69,77,20,13.8,US,1684882176
61,bredasdorp,-34.5322,20.0403,53.42,91,88,3.44,ZA,1684882177
62,la ronge,55.1001,-105.2842,52.05,40,75,11.5,CA,1684882179
63,yellowknife,62.456,-114.3525,61.32,31,75,16.11,CA,1684882081
64,puerto ayora,-0.7393,-90.3518,80.55,89,90,1.99,EC,1684882181
65,utrik,11.2278,169.8474,82.27,77,71,16.02,MH,1684882182
66,talakan,50.3167,130.3667,62.74,50,96,8.97,RU,1684882184
67,kokstad,-30.5472,29.4241,45.45,58,18,4.83,ZA,1684882185
68,new norfolk,-42.7826,147.0587,52.81,69,89,1.01,AU,1684881915
69,wailua homesteads,22.0669,-159.378,77.92,77,100,11.5,US,1684882187
70,qaqortoq,60.7167,-46.0333,32.22,76,17,10.87,GL,1684882188
71,aripuana,-9.1667,-60.6333,80.92,71,98,2.15,BR,1684882190
72,west island,-12.1568,96.8225,80.58,83,19,3.44,CC,1684882191
73,coari,-4.085,-63.1414,76.5,96,77,3.38,BR,1684882192
74,ishigaki,24.3448,124.1572,73.53,78,75,8.05,JP,1684881896
75,jutai,-5.1833,-68.9,77.14,94,91,1.32,BR,1684882195
76,san martin,-33.081,-68.4681,66.74,61,8,9.66,AR,1684882196
77,carnarvon,-24.8667,113.6333,68.65,70,98,6.8,AU,1684882197
78,lompoc,34.6391,-120.4579,60.48,75,100,9.22,US,1684882198
79,portland,45.5234,-122.6762,65.35,47,75,4.61,US,1684882027
80,valenca do piaui,-6.4075,-41.7456,79.68,59,91,5.73,BR,1684882201
81,thompson,55.7435,-97.8558,55.56,38,40,9.22,CA,1684882203
82,olonkinbyen,70.9221,-8.7187,33.96,99,100,9.08,SJ,1684882204
83,naze,28.3667,129.4833,70.72,65,7,14.83,JP,1684882206
84,geraldton,-28.7667,114.6,63.01,94,100,6.91,AU,1684882207
85,artova,40.1158,36.3001,50.68,83,92,4.63,TR,1684882208
86,taulaga,-11.0553,-171.0883,82.24,70,29,8.14,AS,1684882210
87,rio grande,-32.035,-52.0986,64.51,88,53,8.97,BR,1684882211
88,acarau,-2.8856,-40.12,78.48,86,62,10.98,BR,1684882213
89,bethel,41.3712,-73.414,61.83,58,0,10.36,US,1684882214
90,pocone,-16.2567,-56.6228,79.32,42,0,5.91,BR,1684882215
91,ataq,14.5377,46.8319,75.47,65,99,1.1,YE,1684882216
92,goondiwindi,-28.55,150.3167,59.04,37,0,2.42,AU,1684882218
93,colonia,50.9333,6.95,48.78,76,0,5.75,DE,1684882178
94,gobabis,-22.45,18.9667,63.05,27,0,6.31,NA,1684882220
95,medjez el bab,36.6496,9.6123,61.32,90,3,5.26,TN,1684882222
96,sitka,57.0531,-135.33,55.29,58,100,9.22,US,1684882188
97,cabo san lucas,22.8909,-109.9124,93.45,21,40,3.44,MX,1684882224
98,tual,-5.6667,132.75,81.88,78,74,24.94,ID,1684882225
99,port lincoln,-34.7333,135.8667,58.19,67,64,16.26,AU,1684882227
100,mangalia,43.8,28.5833,56.53,87,4,6.38,RO,1684882228
101,baijiantan,45.6333,85.1833,64.67,35,1,13.91,CN,1684882229
102,newman,37.3138,-121.0208,77.97,37,40,14.0,US,1684882231
103,mariental,-24.6333,17.9667,65.03,28,0,4.79,NA,1684882232
104,mahina,-17.5065,-149.489,83.97,70,20,14.97,PF,1684882233
105,petatlan,17.5167,-101.2667,89.28,50,76,7.02,MX,1684882234
106,dakhla,23.6848,-15.958,65.55,80,98,17.54,EH,1684882236
107,anadyr,64.75,177.4833,39.0,75,75,8.95,RU,1684882235
108,ingeniero jacobacci,-41.3427,-69.5448,41.47,56,19,14.27,AR,1684882238
109,marsala,37.7966,12.4352,60.75,88,0,1.14,IT,1684882239
110,nazarovo,56.0064,90.3914,47.34,73,59,9.01,RU,1684882241
111,margaret river,-33.95,115.0667,57.72,62,98,16.6,AU,1684882242
112,huarmey,-10.0681,-78.1522,73.17,80,85,10.18,PE,1684882243
113,bontang,0.1333,117.5,76.95,92,100,6.71,ID,1684882244
114,iskateley,67.6803,53.1512,56.3,68,73,8.72,RU,1684882245
115,hanoi,21.0245,105.8412,77.0,92,97,3.2,VN,1684881999
116,usinsk,65.9939,57.5281,54.45,72,82,6.69,RU,1684882248
117,madang,-5.2246,145.7966,80.51,77,100,5.32,PG,1684882249
118,fortaleza,-3.7227,-38.5247,82.53,78,75,9.22,BR,1684882201
119,yamada,39.4667,141.95,49.44,82,98,13.04,JP,1684882257
120,codrington,-38.2667,141.9667,52.72,74,79,14.99,AU,1684882258
121,kawerau,-38.1,176.7,62.47,73,0,1.99,NZ,1684882259
122,petropavlovsk-kamchatsky,53.0452,158.6483,43.39,65,75,4.47,RU,1684882005
123,beloyarskiy,63.7119,66.6722,52.86,75,85,7.65,RU,1684882262
124,tengrela,10.4869,-6.4097,78.28,73,83,4.68,CI,1684882263
125,hobyo,5.3505,48.5268,81.84,77,100,13.11,SO,1684882264
126,bubaque,11.2833,-15.8333,81.82,70,95,12.64,GW,1684882265
127,kankan,10.3854,-9.3057,80.58,71,87,3.27,GN,1684882268
128,amungan,15.3652,119.9582,83.5,74,33,3.06,PH,1684882270
129,georgetown,5.4112,100.3354,82.35,78,20,3.44,MY,1684882037
130,vadso,70.0744,29.7487,46.56,100,75,6.91,NO,1684882272
131,vorgashor,67.5833,63.95,43.21,74,61,6.08,RU,1684882273
132,marsh harbour,26.5412,-77.0636,79.59,71,5,11.03,BS,1684882275
133,afaahiti,-17.75,-149.2833,82.27,83,68,13.4,PF,1684882276
134,morant bay,17.8815,-76.4093,83.82,78,40,4.63,JM,1684882279
135,morogoro,-6.8167,37.6667,68.29,94,72,1.81,TZ,1684882280
136,whitehorse,60.7161,-135.0538,63.07,23,40,5.75,CA,1684882276
137,hawaiian paradise park,19.5933,-154.9731,79.16,83,40,4.61,US,1684882282
138,udachny,66.4167,112.4,35.46,80,59,12.37,RU,1684882284
139,port-gentil,-0.7193,8.7815,78.76,94,40,6.91,GA,1684882285
140,satipo,-11.2522,-74.6386,72.16,98,98,2.15,PE,1684882286
141,port elizabeth,-33.918,25.5701,48.49,87,0,6.91,ZA,1684882287
142,talnakh,69.4865,88.3972,31.21,95,62,9.98,RU,1684882289
143,manokwari,-0.8667,134.0833,82.02,71,80,2.55,ID,1684882290
144,illizi,26.4833,8.4667,82.2,14,100,5.21,DZ,1684882292
145,lycksele,64.5954,18.6735,49.87,71,93,4.61,SE,1684882293
146,taoudenni,22.6783,-3.9836,85.71,18,94,10.98,ML,1684882294
147,brisas de zicatela,15.8369,-97.0419,91.92,58,0,8.05,MX,1684882296
148,puerto ayacucho,5.6639,-67.6236,79.97,84,63,0.92,VE,1684882297
149,los altos,37.3852,-122.1141,68.47,57,0,12.66,US,1684882142
150,sinop,41.7711,34.8709,53.24,93,84,1.5,TR,1684882299
151,kalmunai,7.4167,81.8167,78.37,85,5,9.31,LK,1684882300
152,torres,-29.3353,-49.7269,68.83,89,5,3.53,BR,1684882302
153,pandharpur,17.6667,75.3333,88.63,38,70,13.02,IN,1684882303
154,coyuca de catalan,18.3333,-100.65,105.12,22,28,1.86,MX,1684882304
155,kourou,5.1552,-52.6478,78.85,90,97,7.16,GF,1684882305
156,pemangkat,1.1667,108.9667,80.44,85,100,7.85,ID,1684882307
157,aasiaat,68.7098,-52.8699,28.67,87,100,16.73,GL,1684882308
158,tofol,5.3248,163.0078,83.98,79,75,9.22,FM,1684882309
159,orapa,-21.2833,25.3667,67.03,34,0,8.81,BW,1684882310
160,puerto baquerizo moreno,-0.9,-89.6,81.59,78,40,10.36,EC,1684882312
161,pacasmayo,-7.4006,-79.5714,75.43,73,52,13.58,PE,1684882313
162,doganyol,38.3118,39.0382,49.66,58,18,3.29,TR,1684882314
163,noumea,-22.2763,166.4572,75.0,99,46,14.14,NC,1684882315
164,murghob,38.1702,73.9667,39.07,67,100,5.37,TJ,1684882317
165,invercargill,-46.4,168.35,48.15,70,68,9.28,NZ,1684882318
166,funafuti,-8.5243,179.1942,89.6,84,75,0.0,TV,1684882322
167,pariaman,-0.619,100.12,77.11,86,61,3.53,ID,1684882323
168,cambria,35.5641,-121.0808,58.8,84,60,5.99,US,1684882324
169,jeddah,21.5169,39.2192,93.06,31,20,4.61,SA,1684882141
170,kasama,-10.2129,31.1808,59.74,93,13,2.86,ZM,1684882327
171,vylkove,45.4021,29.586,60.31,72,43,4.34,UA,1684882328
172,lerwick,60.1545,-1.1494,50.0,93,100,21.99,GB,1684882329
173,hasaki,35.7333,140.8333,61.2,57,24,18.45,JP,1684882331
174,magistral'nyy,56.1725,107.4458,42.48,95,100,4.41,RU,1684882332
175,ciudad lazaro cardenas,17.9583,-102.2,86.43,61,47,10.58,MX,1684882333
176,mattoon,39.4831,-88.3728,80.69,28,0,4.61,US,1684882335
177,badger,64.8,-147.5333,65.26,32,20,5.75,US,1684882269
178,motueka,-41.1333,173.0167,54.1,65,18,2.51,NZ,1684882337
179,savelugu,9.6244,-0.8253,87.12,57,69,8.93,GH,1684882338
180,aleksandrovskoye,44.7142,43.0008,61.99,80,90,8.88,RU,1684882340
181,weisswasser,51.5167,14.6333,51.15,84,100,10.58,DE,1684882341
182,nar'yan-mar,67.6713,53.087,56.44,68,79,8.72,RU,1684882342
183,santo antonio do ica,-3.1022,-67.9397,76.66,96,69,2.51,BR,1684882344
184,ghat,24.9647,10.1728,83.97,21,90,0.63,LY,1684882345
185,burang,30.25,81.1667,37.62,82,93,3.74,CN,1684882346
186,avarua,-21.2078,-159.775,77.05,65,29,2.3,CK,1684882347
187,castillos,-34.1667,-53.8333,68.02,77,95,7.0,UY,1684882312
188,alakurtti,66.9672,30.3491,49.15,91,41,3.36,RU,1684882350
189,locharbriggs,55.1034,-3.5844,52.95,91,85,4.27,GB,1684882351
190,vila franca do campo,37.7167,-25.4333,63.01,82,62,8.68,PT,1684882352
191,san antonio de pale,-1.4014,5.6325,79.32,80,91,4.72,GQ,1684882354
192,el fasher,13.6279,25.3494,83.48,11,0,3.56,SD,1684882355
193,sur,22.5667,59.5289,89.35,53,59,14.85,OM,1684882356
194,pago pago,-14.2781,-170.7025,83.39,84,75,5.75,AS,1684882358
195,sukumo,32.9333,132.7333,64.42,55,0,7.72,JP,1684882359
196,ponta delgada,37.7333,-25.6667,63.32,72,20,12.66,PT,1684882360
197,ma'rib,15.4591,45.3253,76.82,52,100,4.61,YE,1684882361
198,lautoka,-17.6167,177.4667,80.46,69,75,5.75,FJ,1684882076
199,keokuk,40.3973,-91.3849,82.63,32,0,5.75,US,1684882364
200,khovd,48.0056,91.6419,45.25,54,23,4.07,MN,1684882365
201,novo aripuana,-5.1206,-60.3797,76.17,96,93,2.48,BR,1684882366
202,atbasar,51.8,68.3333,57.56,48,37,5.66,KZ,1684882368
203,weno,7.4515,151.8468,85.95,84,75,8.05,FM,1684882369
204,ocean shores,46.9737,-124.1563,57.69,73,0,10.36,US,1684882370
205,ola,59.5833,151.2833,41.14,97,100,6.71,RU,1684882371
206,sorong,-0.8833,131.25,80.1,80,100,6.67,ID,1684882373
207,angaur state,6.906,134.13,81.55,82,99,18.12,PW,1684882374
208,hamilton,39.1834,-84.5333,78.67,49,40,8.05,US,1684882331
209,ust-nera,64.5667,143.2,36.21,96,100,7.09,RU,1684882376
210,calabugao,8.4564,125.1589,72.82,83,94,1.54,PH,1684882377
211,ilulissat,69.2167,-51.1,24.82,86,100,11.5,GL,1684882379
212,alice springs,-23.7,133.8833,40.55,81,5,0.0,AU,1684882380
213,gaeta,41.2183,13.5628,63.52,92,63,2.33,IT,1684882381
214,yerofey pavlovich,53.9667,121.9667,49.23,84,83,2.71,RU,1684882382
215,nova sintra,14.8667,-24.7167,68.63,79,54,14.09,CV,1684882384
216,palm coast,29.585,-81.2078,76.42,84,96,8.01,US,1684882104
217,qusmuryn,52.4503,64.6311,60.22,46,31,7.45,KZ,1684882386
218,kirriemuir,56.674,-3.0034,49.64,90,100,5.75,GB,1684882388
219,kununurra,-15.7667,128.7333,57.18,72,2,0.0,AU,1684882389
220,kavaratti,10.5669,72.642,83.86,74,24,5.06,IN,1684882390
221,freetown,8.484,-13.2299,82.11,83,75,6.91,SL,1684882391
222,sakaiminato,35.55,133.2333,62.58,67,75,8.05,JP,1684882393
223,okeho,8.0333,3.35,74.5,89,87,5.88,NG,1684882395
224,tannum sands,-23.9504,151.3693,67.89,60,0,12.66,AU,1684882397
225,laguna,38.421,-121.4238,78.04,46,0,12.66,US,1684882398
226,altamont,42.2068,-121.7372,70.09,26,0,11.5,US,1684882389
227,zharkent,44.1628,80.0,57.92,48,51,7.09,KZ,1684882400
228,khulm,36.6974,67.6983,77.14,38,7,3.85,AF,1684882402
229,carolina beach,34.0352,-77.8936,72.95,74,100,19.69,US,1684882403
230,queenstown,-31.8976,26.8753,48.47,46,4,4.76,ZA,1684882404
231,stephenville,32.2207,-98.2023,83.75,60,40,6.91,US,1684882405
232,jamestown,42.097,-79.2353,72.86,37,20,8.05,US,1684882223
233,punta arenas,-53.15,-70.9167,33.91,93,0,16.11,CL,1684882408
234,palmer,42.1584,-72.3287,65.86,56,75,13.8,US,1684882409
235,saurimo,-9.6608,20.3916,66.06,44,2,5.32,AO,1684882411
236,boulazac,45.1167,0.75,57.87,81,3,10.29,FR,1684882412
237,labytnangi,66.6572,66.4183,44.64,61,62,4.34,RU,1684882413
238,la punta,-33.1837,-66.3127,58.89,75,43,4.56,AR,1684882414
239,mungwi,-10.1732,31.3694,59.86,95,26,2.59,ZM,1684882416
240,crane,31.3974,-102.3501,93.56,13,0,0.4,US,1684882417
241,kasempa,-13.4584,25.8338,63.1,66,67,4.27,ZM,1684882418
242,mildura,-34.2,142.15,53.51,50,11,11.27,AU,1684882419
243,tabou,4.423,-7.3528,81.0,83,76,5.17,CI,1684882420
244,narvik,68.4384,17.4272,40.46,95,97,1.77,NO,1684882422
245,pokachi,61.7198,75.3683,42.17,65,8,5.97,RU,1684882423
246,sao jose da coroa grande,-8.8978,-35.1478,77.94,86,19,11.1,BR,1684882342
247,tunduma,-9.3,32.7667,60.39,88,95,4.97,TZ,1684882425
248,bandon,51.7469,-8.7425,51.39,95,100,8.08,IE,1684882427
249,constantia,44.1833,28.65,56.08,86,4,6.55,RO,1684882275
250,mili,6.0815,171.735,82.49,79,51,13.29,MH,1684882429
251,nova olimpia,-14.7972,-57.2881,76.28,67,2,1.52,BR,1684882430
252,fort st. john,56.2499,-120.8529,48.09,81,100,9.22,CA,1684882369
253,badagry,6.4167,2.8833,80.29,86,88,6.55,NG,1684882433
254,kruisfontein,-34.0033,24.7314,53.53,60,12,4.47,ZA,1684882294
255,cannonvale,-20.2833,148.7,69.19,72,71,16.78,AU,1684882519
256,keflavik,64.0049,-22.5624,43.23,61,75,36.82,IS,1684882315
257,tura,25.5198,90.2201,69.35,96,97,3.71,IN,1684882325
258,tosham,28.8833,75.9167,87.89,35,86,5.99,IN,1684882522
259,kudat,6.8837,116.8477,76.93,94,20,0.0,MY,1684882524
260,rongelap,11.1635,166.8941,82.74,75,84,14.74,MH,1684882298
261,anatuya,-28.4606,-62.8347,77.85,70,59,9.08,AR,1684882526
262,hafar al-batin,28.4328,45.9708,86.58,32,0,9.22,SA,1684882527
263,enfield town,51.6515,-0.085,51.66,76,99,3.44,GB,1684882529
264,boa vista,2.8197,-60.6733,84.18,74,40,5.75,BR,1684882309
265,kismayo,-0.3582,42.5454,80.08,78,4,12.41,SO,1684882531
266,jha-jha,24.7667,86.3667,84.25,49,34,7.56,IN,1684882532
267,nevel'sk,46.6733,141.8633,50.05,65,0,9.31,RU,1684882535
268,vorkuta,67.5,64.0,44.31,71,76,5.66,RU,1684882536
269,port alfred,-33.5906,26.891,62.04,53,8,4.56,ZA,1684882537
270,bridgewater,44.3835,-64.5155,49.24,57,0,8.05,CA,1684882517
271,moapa valley,36.5805,-114.4703,98.55,7,31,24.83,US,1684882541
272,ulaangom,49.9811,92.0667,48.09,54,15,5.44,MN,1684882542
273,kuta,-8.7233,115.1723,75.0,94,20,5.01,ID,1684882545
274,savanur,14.9667,75.35,76.17,83,24,11.43,IN,1684882546
275,nyurba,63.2842,118.3319,48.31,48,100,4.88,RU,1684882547
276,kedrovyy,56.1667,91.8167,42.87,65,78,8.34,RU,1684882548
277,mena,51.5217,32.2157,54.86,85,30,2.55,UA,1684882550
278,itamaraca,-7.7478,-34.8256,82.45,88,26,11.16,BR,1684882551
279,kill devil hills,36.0307,-75.676,63.07,84,100,16.11,US,1684882504
280,luderitz,-26.6481,15.1594,56.23,71,9,4.07,NA,1684882553
281,san julian,21.0167,-102.1667,84.42,19,81,5.21,MX,1684882554
282,kosice,48.6667,21.3333,61.29,88,0,4.61,SK,1684882556
283,saldanha,-33.0117,17.9442,48.25,85,98,6.06,ZA,1684882294
284,alaghsas,17.0187,8.0168,93.67,18,85,6.29,NE,1684882558
285,uturoa,-16.7333,-151.4333,79.88,80,79,11.99,PF,1684882268
286,gaiman,-43.2897,-65.4929,54.88,30,1,8.48,AR,1684882562
287,pemba,-12.974,40.5178,74.23,79,2,10.63,MZ,1684882563
288,barreiro do jaiba,-15.6167,-43.6,76.42,48,97,12.26,BR,1684882564
289,matthew town,20.95,-73.6667,81.66,69,0,6.26,BS,1684882566
290,hobaramachi,37.8167,140.55,56.89,78,34,1.01,JP,1684882567
291,teluk nibung,3.001,99.8164,76.69,91,100,3.62,ID,1684882568
292,sisimiut,66.9395,-53.6735,29.7,72,100,25.57,GL,1684882569
293,enewetak,11.3474,162.3373,83.25,72,100,15.61,MH,1684882571
294,pandan,14.0453,124.1694,82.47,80,74,3.78,PH,1684882518
295,anar darah,32.7587,61.654,79.16,23,0,7.67,AF,1684882573
296,kuala kedah,6.1,100.3,78.78,94,20,2.3,MY,1684882574
297,minas de marcona,-15.2119,-75.1103,59.2,83,40,14.03,PE,1684882576
298,maintirano,-18.0667,44.0167,74.88,77,100,10.89,MG,1684882577
299,manoharpur,27.3,75.95,86.25,34,24,7.34,IN,1684882579
300,nova xavantina,-14.6667,-52.35,72.54,52,100,2.98,BR,1684882581
301,mogadishu,2.0371,45.3438,80.29,84,86,12.82,SO,1684882582
302,haiku-pauwela,20.9219,-156.3051,83.44,54,20,26.46,US,1684882583
303,yei,4.095,30.6779,67.62,95,87,3.31,SS,1684882586
304,huilong,31.8111,121.655,64.8,65,100,7.23,CN,1684882587
305,campo belo,-20.8972,-45.2772,62.19,65,29,4.27,BR,1684882588
306,whangarei,-35.7317,174.3239,62.47,68,24,11.3,NZ,1684882590
307,charters towers,-20.1,146.2667,67.91,60,17,13.18,AU,1684882591
308,bamboo flat,11.7,92.7167,80.69,89,40,2.3,IN,1684882592
309,miandrivazo,-19.5167,45.4667,68.41,85,85,1.32,MG,1684882593
310,qarauyl,48.9451,79.255,49.21,50,21,8.21,KZ,1684882595
311,dudinka,69.4058,86.1778,31.62,95,34,8.52,RU,1684882596
312,ibirama,-27.0569,-49.5178,65.32,87,0,2.44,BR,1684882597
313,lincoln city,44.9582,-124.0179,58.28,74,49,8.99,US,1684882599
314,mangrol,21.1167,70.1167,82.24,79,21,13.73,IN,1684882600
315,yulinshi,38.2906,109.7494,55.9,57,42,13.82,CN,1684882601
316,el porvenir,13.7617,-87.3458,92.53,54,81,5.91,HN,1684882507
317,fale old settlement,-9.3852,-171.2468,82.51,73,33,7.99,TK,1684882604
318,ban tak,17.0432,99.0813,76.82,85,100,4.72,TH,1684882605
319,sao joao da barra,-21.6403,-41.0511,69.89,85,84,10.6,BR,1684882606
320,las lomitas,-24.7096,-60.593,77.13,77,40,6.89,AR,1684882607
321,kurkino,53.4257,38.6582,55.22,96,100,4.38,RU,1684882608
322,tindouf,27.6711,-8.1474,66.65,45,0,18.41,DZ,1684882610
323,bikenibeu village,1.3673,173.1241,84.16,79,75,6.91,KI,1684882611
324,las heras,-46.5419,-68.9359,42.89,47,3,15.86,AR,1684882612
325,mejit,10.2753,170.8646,81.84,79,100,16.62,MH,1684882613
326,ulladulla,-35.35,150.4667,52.97,56,78,4.16,AU,1684882615
327,necochea,-38.5473,-58.7368,61.65,90,100,7.49,AR,1684882616
328,chiredzi,-21.05,31.6667,59.41,90,0,1.03,ZW,1684882617
329,mahriz,31.5917,54.4318,73.9,24,48,2.28,IR,1684882618
330,oriximina,-1.7656,-55.8661,79.56,86,87,2.37,BR,1684882621
331,tvoroyri,61.5556,-6.8111,46.83,78,71,32.91,FO,1684882622
332,bolobo,-2.1667,16.2333,75.0,88,85,2.75,CD,1684882624
333,svyetlahorsk,52.6329,29.7389,53.04,88,22,3.71,BY,1684882625
334,khandyga,62.6667,135.6,45.46,47,6,2.17,RU,1684882626
335,nouadhibou,20.931,-17.0347,67.98,68,91,16.11,MR,1684882628
336,namibe,-15.1961,12.1522,69.75,76,36,8.68,AO,1684882629
337,phitsanulok,16.9167,100.5,77.11,81,98,0.54,TH,1684882630
338,alofi,-19.0595,-169.9187,80.49,61,40,6.91,NU,1684882400
339,trancoso,22.7333,-102.3667,79.97,15,85,9.24,MX,1684882633
340,viqueque,-8.8673,126.3658,77.04,85,99,2.89,TL,1684882634
341,aykhal,66.0,111.5,31.66,84,84,12.68,RU,1684882635
342,tralee,52.2704,-9.7026,48.56,94,99,2.71,IE,1684882637
343,yokadouma,3.5167,15.05,71.8,91,98,0.51,CM,1684882638
344,serov,59.6033,60.5787,54.72,73,38,4.14,RU,1684882639
345,tazovsky,67.4667,78.7,31.28,89,29,6.69,RU,1684882640
346,douglas,41.3,-96.167,82.13,33,0,8.05,US,1684882642
347,olinda,-8.0089,-34.8553,82.13,74,40,12.66,BR,1684882643
348,big rapids,43.6981,-85.4837,77.13,31,0,5.75,US,1684882644
349,pervomayskoye,43.919,46.7102,60.35,87,39,7.11,RU,1684882646
350,mundybash,53.211,87.2983,44.29,71,23,1.92,RU,1684882647
351,el charco,2.4769,-78.1105,86.02,92,100,2.68,CO,1684882648
352,tionk essil,12.7856,-16.5217,82.45,57,100,8.43,SN,1684882649
353,st. john's,47.5649,-52.7093,36.88,92,100,17.0,CA,1684882651
354,dingcheng,32.1272,115.0394,61.0,93,100,5.5,CN,1684882652
355,kodiak,57.79,-152.4072,44.11,93,100,18.41,US,1684882653
356,kovdor,67.5662,30.4758,49.73,85,67,4.81,RU,1684882655
357,port mathurin,-19.6833,63.4167,77.0,60,32,12.41,MU,1684882527
358,igarapava,-20.0383,-47.7469,74.32,67,0,4.83,BR,1684882616
359,kapuskasing,49.4169,-82.4331,46.4,87,100,13.8,CA,1684882589
360,emirdag,39.0197,31.15,53.28,86,100,2.73,TR,1684882660
361,alamos,27.0167,-108.9333,94.39,14,100,8.32,MX,1684882661
362,hilo,19.7297,-155.09,78.51,78,40,7.0,US,1684882634
363,yeed,4.55,43.0333,80.33,63,100,12.33,SO,1684882663
364,egilsstadir,65.2653,-14.3948,44.51,49,0,28.77,IS,1684882665
365,cam ranh,11.9214,109.1591,80.56,78,0,0.0,VN,1684882666
366,wafangdian,39.6183,122.0081,66.02,41,100,5.79,CN,1684882667
367,kristiansund,63.1115,7.732,45.25,81,75,3.44,NO,1684882520
368,katsuren-haebaru,26.3369,127.8719,67.98,88,0,6.91,JP,1684882669
369,arraial do cabo,-22.9661,-42.0278,73.26,83,20,8.05,BR,1684882671
370,san jose iturbide,21.0,-100.3833,83.66,38,74,4.74,MX,1684882672
371,ketchikan,55.3422,-131.6461,63.07,42,0,9.22,US,1684882673
372,puerto rico,-26.796,-55.024,69.76,77,0,3.24,AR,1684882398
373,remire-montjoly,4.9167,-52.2667,78.84,83,0,3.44,GF,1684882565
374,altay,47.8667,88.1167,49.26,50,1,6.82,CN,1684882678
375,mockrehna,51.5076,12.8142,51.57,79,99,12.15,DE,1684882680
376,ancud,-41.8697,-73.8203,49.08,85,72,28.59,CL,1684882682
377,dokkum,53.3222,5.997,47.46,87,40,6.91,NL,1684882683
378,galesong,-5.3166,119.3661,73.42,79,96,5.21,ID,1684882684
379,machico,32.7,-16.7667,66.36,75,75,8.05,PT,1684882685
380,tsiombe,-25.3,45.4833,61.07,66,1,1.81,MG,1684882670
381,margate,51.3813,1.3862,48.7,76,98,1.99,GB,1684882688
382,beltran,-27.8291,-64.061,79.57,67,93,15.17,AR,1684882689
383,westport,41.1415,-73.3579,61.36,60,0,10.36,US,1684882393
384,sohar,24.3643,56.7468,90.27,46,99,3.62,OM,1684882692
385,le vauclin,14.5452,-60.8388,80.65,78,50,5.75,MQ,1684882639
386,cozumel,20.5083,-86.9458,87.48,68,75,11.5,MX,1684882601
387,kone,-21.0595,164.8658,74.88,50,8,7.65,NC,1684882696
388,trincomalee,8.5711,81.2335,80.37,82,3,11.54,LK,1684882697
389,boone,39.0334,-92.3335,82.4,58,12,5.84,US,1684882675
390,mount pearl,47.5166,-52.7813,35.91,92,100,13.8,CA,1684882699
391,quellon,-43.1167,-73.6167,52.05,76,100,25.32,CL,1684882702
392,darjiling,27.0333,88.2667,51.93,81,100,5.08,IN,1684882703
393,siwa oasis,29.2041,25.5195,77.7,29,36,7.4,EG,1684882704
394,maragogi,-9.0122,-35.2225,77.68,86,18,10.69,BR,1684882706
395,hovd,48.0056,91.6419,45.25,54,23,4.07,MN,1684882707
396,arapgir,39.0412,38.4952,56.89,63,13,3.31,TR,1684882708
397,mor,47.3779,18.2035,60.19,96,100,10.92,HU,1684882709
398,saint-gilles,43.6766,4.4302,67.1,77,0,9.22,FR,1684882711
399,ak'ordat,15.5486,37.8867,88.34,30,0,3.53,ER,1684882712
400,juchipila,21.4167,-103.1167,93.81,15,41,11.68,MX,1684882713
401,nizhniy ingash,56.2,96.53,40.19,78,85,12.48,RU,1684882714
402,bogatynia,50.9075,14.9563,51.67,94,100,4.0,PL,1684882716
403,port macquarie,-31.4333,152.9167,55.89,55,15,4.0,AU,1684882717
404,george town,5.4112,100.3354,82.35,78,20,3.44,MY,1684882718
405,acajutla,13.5928,-89.8275,86.58,64,100,7.56,SV,1684882719
406,nemuro,43.3236,145.575,40.37,85,100,19.28,JP,1684882721
407,aichach,48.4576,11.1341,55.87,94,99,5.5,DE,1684882722
408,sorsk,54.0033,90.2467,45.25,64,30,8.55,RU,1684882723
409,fregenal de la sierra,38.1692,-6.6537,50.41,95,76,4.07,ES,1684882724
410,magadan,59.5667,150.8,40.53,99,100,7.34,RU,1684882727
411,flying fish cove,-10.4217,105.6791,76.68,88,75,8.05,CX,1684882728
412,palu,-0.8917,119.8707,77.97,92,96,1.95,ID,1684882729
413,lubartow,51.4603,22.6095,57.63,69,100,7.72,PL,1684882731
414,punta del este,-34.9667,-54.95,67.91,91,0,5.01,UY,1684882732
415,cooma,-36.2333,149.1333,45.5,46,29,1.43,AU,1684882733
416,cadale,2.7603,46.3222,80.19,85,96,10.22,SO,1684882533
417,fortuna,40.5982,-124.1573,59.41,69,20,20.71,US,1684882735
418,zhaoqing,23.0512,112.4597,78.82,99,100,3.44,CN,1684882737
419,itapirapua,-15.8233,-50.6133,71.74,46,89,4.92,BR,1684882738
420,thunder bay,48.4001,-89.3168,51.71,87,100,10.36,CA,1684882739
421,hirara,24.8,125.2833,70.07,88,75,3.44,JP,1684882742
422,sirte,31.2089,16.5887,66.58,80,30,19.82,LY,1684882744
423,dawson creek,55.7666,-120.2362,46.04,81,100,3.44,CA,1684882702
424,taltal,-25.4,-70.4833,62.92,82,27,0.18,CL,1684882748
425,mollendo,-17.0231,-72.0147,66.06,85,64,8.08,PE,1684882749
426,kisanga,-7.4362,37.7034,71.37,96,97,0.54,TZ,1684882751
427,paradip garh,20.3167,86.6167,83.01,90,32,14.54,IN,1684882752
428,cold lake,54.4502,-110.2017,57.15,67,75,25.32,CA,1684882703
429,itoman,26.1247,127.6694,73.24,67,20,8.05,JP,1684882755
430,katsuura,35.1333,140.3,60.46,70,85,10.49,JP,1684882650
431,hadibu,12.65,54.0333,84.16,72,28,6.49,YE,1684882732
432,lodwar,3.1191,35.5973,84.83,48,73,14.03,KE,1684882758
433,lihue,21.9789,-159.3672,78.4,79,100,11.5,US,1684882707
434,bykovo,55.6361,38.0803,60.22,82,0,4.47,RU,1684882761
435,obihiro,42.9172,143.2044,51.44,69,78,3.47,JP,1684882762
436,lahad datu,5.0268,118.327,76.75,91,98,1.45,MY,1684882763
437,boras,57.721,12.9401,52.0,94,95,5.61,SE,1684882765
438,ta`u,-14.2336,-169.5144,81.12,81,58,10.11,AS,1684882766
439,santa marta,11.2408,-74.199,89.65,70,20,10.36,CO,1684882658
440,ulety,51.3572,112.4849,50.47,54,1,9.89,RU,1684882768
441,fort bragg,35.139,-79.006,75.69,33,20,14.97,US,1684882770
442,keetmanshoop,-26.5833,18.1333,63.52,17,6,6.91,NA,1684882529
443,sudzha,51.1976,35.2726,54.1,95,33,1.99,RU,1684882774
444,cabedelo,-6.9811,-34.8339,79.47,86,29,13.56,BR,1684882775
445,usogorsk,63.4106,48.6872,53.67,87,82,3.67,RU,1684882776
446,taksimo,56.3444,114.8794,48.31,51,53,2.39,RU,1684882778
447,kailua-kona,19.6406,-155.9956,79.38,76,100,9.22,US,1684882718
448,mugia,43.1041,-9.2179,59.99,87,3,25.75,ES,1684882780
449,las khorey,11.1595,48.1967,85.8,74,100,6.93,SO,1684882781
450,maridi,4.9158,29.4742,65.03,94,39,4.09,SS,1684882783
451,suarez,2.954,-76.6964,69.71,98,97,2.06,CO,1684882784
452,holualoa,19.6228,-155.9522,75.36,78,100,9.22,US,1684882524
453,aldinga beach,-35.2793,138.4604,54.12,77,20,11.56,AU,1684882786
454,gedo,9.0167,37.45,55.6,87,100,0.13,ET,1684882788
455,turpan,42.9333,89.1667,71.37,18,2,2.89,CN,1684882739
456,tutoia,-2.7619,-42.2744,79.21,88,29,7.05,BR,1684882790
457,tamanrasset,22.785,5.5228,78.71,21,0,11.5,DZ,1684882791
458,port saint john's,-31.6229,29.5448,61.32,64,3,6.38,ZA,1684882672
459,sarmiento,-45.5882,-69.07,46.44,46,4,12.15,AR,1684882794
460,san vicente de chucuri,6.881,-73.4098,78.17,96,100,1.39,CO,1684882796
461,labrador city,52.9463,-66.9114,55.31,33,100,20.71,CA,1684882797
462,tenabo,20.05,-90.2333,87.8,45,78,8.34,MX,1684882799
463,muhos,64.808,25.9931,53.38,94,91,6.24,FI,1684882717
464,selfoss,63.9331,-20.9971,38.05,71,98,33.33,IS,1684882801
465,al bawiti,28.3492,28.8659,72.12,39,0,9.31,EG,1684882724
466,nuuk,64.1835,-51.7216,29.88,80,97,25.01,GL,1684882814
467,bei'an,24.5399,109.533,67.39,94,100,2.57,CN,1684882823
468,dapa,9.7594,126.0531,83.19,77,100,8.21,PH,1684882828
469,santiago,-33.4569,-70.6483,56.21,81,75,12.66,CL,1684882680
470,malanje,-9.5402,16.341,66.09,56,66,1.83,AO,1684882830
471,colchani,-20.3,-66.9333,40.21,28,0,4.34,BO,1684882832
472,satna,24.5833,80.8333,91.15,23,48,3.56,IN,1684882833
473,aweil,8.7682,27.4002,84.61,50,16,7.83,SS,1684882834
474,kodinar,20.7903,70.7031,80.56,81,31,10.87,IN,1684882836
475,oliveira dos brejinhos,-12.3169,-42.8961,77.79,57,97,5.44,BR,1684882838
476,tenno,39.9,139.9667,52.81,66,2,12.28,JP,1684882840
477,benjamin constant,-4.3831,-70.0311,78.85,83,40,5.75,BR,1684882841
478,guerrero negro,27.9769,-114.0611,62.71,75,11,15.52,MX,1684882842
479,zephyrhills,28.2336,-82.1812,78.13,79,40,13.8,US,1684882844
480,malpica,43.3228,-8.8105,59.72,69,4,29.64,ES,1684882846
481,borzya,50.3833,116.5167,56.03,37,54,13.02,RU,1684882847
482,xining,36.6167,101.7667,51.48,55,81,0.98,CN,1684882557
483,portage la prairie,49.9728,-98.2926,69.17,46,75,19.57,CA,1684882850
484,volodarskiy,46.4013,48.5409,62.55,62,40,2.95,RU,1684882852
485,mazagao,-0.115,-51.2894,82.45,90,75,3.09,BR,1684882853
486,madimba,-10.4,40.3333,75.42,85,77,10.0,TZ,1684882854
487,yuzhnoural'sk,54.4418,61.2536,56.91,43,14,3.8,RU,1684882856
488,cidade velha,14.9167,-23.6167,73.87,73,20,18.41,CV,1684882857
489,tomatlan,19.9333,-105.25,93.78,33,52,11.97,MX,1684882858
490,geneina,13.45,22.45,86.27,23,14,3.04,SD,1684882860
491,balnearia,-31.0088,-62.6673,70.81,90,98,5.99,AR,1684882861
492,port augusta,-32.5,137.7667,54.84,56,30,7.87,AU,1684882864
493,pangody,65.85,74.4859,34.2,77,23,4.79,RU,1684882865
494,erenhot,43.6475,111.9767,61.74,45,100,29.04,CN,1684882582
495,joshimath,30.5667,79.5667,65.01,66,99,1.19,IN,1684882868
496,hell-ville,-13.4,48.2667,78.37,75,52,4.45,MG,1684882869
497,bikin,46.8161,134.26,61.48,64,86,8.25,RU,1684882871
498,tynda,55.1667,124.7167,44.42,68,100,3.67,RU,1684882872
499,lorengau,-2.0226,147.2712,80.31,83,100,6.76,PG,1684882874
500,pitea,65.3172,21.4794,44.69,80,89,4.03,SE,1684882875
501,prince rupert,54.3161,-130.3201,53.47,78,0,21.85,CA,1684882831
502,chui,-33.6971,-53.4616,64.44,87,92,6.29,UY,1684882878
503,bandarbeyla,9.4942,50.8122,81.48,82,79,11.05,SO,1684882879
504,pingdingshan,33.7385,113.3012,61.43,82,100,5.32,CN,1684882880
505,bardai,11.65,7.2333,85.24,51,87,9.57,NG,1684882848
506,biloela,-24.4167,150.5,66.9,52,0,9.71,AU,1684882883
507,yuzhno-kurilsk,44.0306,145.8556,42.1,79,100,8.08,RU,1684882672
508,ubon ratchathani,15.1667,105.1667,76.89,70,97,3.6,TH,1684882885
509,carutapera,-1.195,-46.02,77.04,93,77,5.23,BR,1684882887
510,warrnambool,-38.3833,142.4833,54.77,71,91,16.69,AU,1684882882
511,requena,39.4883,-1.1004,52.52,89,78,2.75,ES,1684882889
512,kerikeri,-35.2268,173.9474,61.92,72,2,10.83,NZ,1684882882
513,jizzax,40.1158,67.8422,68.04,41,4,2.44,UZ,1684882618
514,praia,14.9215,-23.5087,73.94,73,20,18.41,CV,1684882893
515,saint-pierre,-21.3393,55.4781,74.8,73,100,2.3,RE,1684882894
516,yermolayevo,52.7167,55.8,58.96,56,25,4.92,RU,1684882896
517,san ramon,37.7799,-121.978,68.29,57,0,16.11,US,1684882783
518,swakopmund,-22.6833,14.5333,54.99,91,0,1.99,NA,1684882888
519,metkovic,43.0542,17.6483,62.47,78,12,2.8,HR,1684882899
520,north bend,43.4065,-124.2243,59.32,66,0,23.02,US,1684882901
521,porto novo,6.4965,2.6036,84.02,86,89,5.41,BJ,1684882902
522,mingguang,32.7802,117.9638,66.06,35,100,10.31,CN,1684882903
523,yendi,9.4427,-0.0099,82.49,69,57,8.37,GH,1684882905
524,micheweni,-4.9667,39.8333,79.09,83,6,11.14,TZ,1684882849
525,ca mau,9.1769,105.15,79.79,84,100,4.23,VN,1684882907
526,collie,-33.3667,116.15,49.98,87,100,5.48,AU,1684882908
527,huangmei,30.1924,116.025,63.1,94,100,3.44,CN,1684882910
528,tazacorte,28.629,-17.9293,63.14,86,100,3.44,ES,1684882886
529,mandalgovi,45.7625,106.2708,49.71,72,100,13.2,MN,1684882912
530,conception bay south,47.4999,-52.9981,36.39,92,100,17.0,CA,1684882822
531,toliara,-23.35,43.6667,64.04,75,0,10.74,MG,1684882915
532,gorontalo,0.5412,123.0595,78.08,87,99,1.57,ID,1684882760
533,kalymnos,36.95,26.9833,63.93,77,20,2.3,GR,1684882918
534,giado,31.9582,12.0203,67.64,48,0,20.29,LY,1684882919
535,narrabri,-30.3167,149.7833,57.74,31,24,1.92,AU,1684882920
536,manzini,-26.25,31.5,56.61,74,50,3.09,SZ,1684882921
537,la foa,-21.7108,165.8276,72.59,54,27,11.43,NC,1684882923
538,akom ii,2.7833,10.5667,72.03,99,95,1.86,CM,1684882924
539,bukama,-9.2,25.85,71.82,60,5,3.69,CD,1684882926
540,pagar alam,-4.0167,103.2667,65.93,96,38,3.42,ID,1684882927
541,east ballina,-28.8667,153.5833,59.79,78,8,5.26,AU,1684882928
542,santa marta de ortigueira,43.6833,-7.85,60.26,85,54,1.99,ES,1684882930
543,winnemucca,40.973,-117.7357,78.85,21,75,13.8,US,1684882931
544,mengcheng chengguanzhen,33.2661,116.566,61.11,72,100,1.19,CN,1684882932
545,beau vallon,-20.4189,57.6953,71.83,94,40,3.44,MU,1684882934
546,afif,23.9065,42.9172,76.41,43,94,15.46,SA,1684882935
547,opuwo,-18.0607,13.84,62.85,43,25,4.36,NA,1684882936
548,ringkobing,56.0901,8.244,50.02,85,89,18.88,DK,1684882938
549,macapa,0.0389,-51.0664,82.38,94,20,4.61,BR,1684882939
550,lazaro cardenas,17.9583,-102.2,86.43,61,47,10.58,MX,1684882738
551,vershino-darasunskiy,52.35,115.5167,46.96,54,14,12.19,RU,1684882942
552,abbeville,50.1,1.8333,45.09,92,94,6.31,FR,1684882844
553,cururupu,-1.8283,-44.8683,76.21,94,82,3.6,BR,1684882945
554,pashkovskiy,45.0231,39.1061,64.17,88,0,11.18,RU,1684882946
555,anloga,5.7947,0.8973,82.36,79,73,7.02,GH,1684882947
556,saint-francois,46.4154,3.9054,56.64,82,0,6.91,FR,1684882867
557,arenapolis,-14.4503,-56.8461,76.8,58,12,1.28,BR,1684882950
558,calvinia,-31.4707,19.776,53.37,36,75,3.47,ZA,1684882951
559,malango,-2.9627,119.9001,68.54,97,97,1.14,ID,1684882953
560,xiulin,29.7167,112.4,60.91,90,9,3.4,CN,1684882954
561,urangan,-25.3,152.9,63.19,84,0,10.45,AU,1684882955
562,boden,65.8252,21.6886,44.6,77,92,2.08,SE,1684882956
563,okhotsk,59.3833,143.3,42.35,61,0,3.27,RU,1684882958
564,kaa-khem,51.6833,94.7333,48.31,56,12,6.53,RU,1684882959
565,yelizovo,53.1873,158.3805,44.11,65,75,4.47,RU,1684882960
566,tezu,27.9167,96.1667,72.84,66,86,3.69,IN,1684882961
567,lebowakgomo,-24.2,29.5,48.65,81,23,4.12,ZA,1684882963
568,walla walla,46.0646,-118.343,69.51,42,0,5.01,US,1684882674
569,constitucion,-35.3333,-72.4167,55.06,81,71,11.45,CL,1684882832
570,coquimbo,-29.9533,-71.3436,62.33,82,0,2.3,CL,1684882832
571,verkhnevilyuysk,63.4453,120.3167,46.6,38,100,4.18,RU,1684882968
572,al qitena,14.8648,32.3668,91.87,9,0,5.59,SD,1684882969
573,windhoek,-22.5594,17.0832,58.71,36,0,3.44,NA,1684882970
